~Version Information Section
VERS.          2.0                               : CWLS Log ASCII Standard - VERSION 2.0
WRAP.          NO                                : One Line per depth step
PROD.          TotalDepth                        : LAS Producer
PROG.          TotalDepth.LIS.ToLAS 0.1.1        : LAS Program name and version
CREA.          2020-09-07 10:37:27.185570 UTC    : LAS Creation date [YYYY-mm-dd HH MM SS.us UTC]
SOURCE.        DILLSON-1_WELL_LOGS_FILE-049.LIS  : LIS File Name
LOGICAL-FILE.  0                                 : Logical File number in the LIS file
~Well Information Section
#MNEM.UNIT  Value           Description
#---------  -----           -----------
STRT.FEET   5280.792        : START
STOP.FEET   5079.725        : STOP
STEP.FEET   -0.267          : STEP
NULL.       -999.250        : NULL VALUE
COUN.       N.A.            : County
CTRY.       AUSTRALIA       : COUNTRY
LATI.       21 23 06.314    : Latitude
LONG.       115 10 56.336   : Longitude
STAT.       WEST AUSTRALIA  : STATE
DATE.       17-OCT-88       : DATE
~Curve Information Section
#MNEM.UNIT  API CODE      Curve Description
#---------  ------------  -----------------
X   ..1IN   00 001 00 00  : X axis (implied)
FC0 .       75   0  0  0  : N/A
FC1 .       75   0  0  0  : N/A
FC2 .       75   0  0  0  : N/A
FC3 .       75   0  0  0  : N/A
FC4 .       75   0  0  0  : N/A
STAT.       75   0  0  0  : N/A
REF .       75   0  0  0  : N/A
REFC.       75   0  0  0  : N/A
EMEX.       75   0  0  0  : N/A
PADP.       75   0  0  0  : Mrpa Differential Pressure
TEMP.       75   0  0  0  : Temperature
FEP1.       75   0  0  0  : None
FEP2.       75   0  0  0  : None
RAC1.       75   0  0  0  : N/A
RAC2.       75   0  0  0  : N/A
P1AZ.DEG    75 630  1  0  : Pad 1 Azimuth
DEVI.DEG    75 620  1  0  : Deviation
HAZI.DEG    75 630  1  0  : Hole Azimuth
C1  .IN     75 280 13  0  : Caliper 1
C2  .IN     75 280 24  0  : Caliper 2
FEP .V       1   0  0  0  : N/A
RB  .DEG    75 631  1  0  : Relative Bearing
~Parameter Information Section
#MNEM.UNIT  Value                                                         Description
#---------  -----                                                         -----------
CLAB.       COUNTY                                                        : County
CN  .       WESTERN MINING CORP.                                          : N/A
FN  .       WILDCAT                                                       : N/A
NATI.       AUSTRALIA                                                     : Nation
SLAB.       STATE                                                         : State/Province Label
WN  .       DILLSON #1                                                    : N/A
BLI .M      1606.000                                                      : N/A
DAY .       22                                                            : N/A
ENGI.       SUSAN ROSE                                                    : Recorded By
LCC .       440.000                                                       : N/A
MONT.       11                                                            : Month
MRT .DEGC   72.000                                                        : N/A
REF .       ASJ-141025                                                    : N/A
RUN .       2                                                             : N/A
STEM.DEGC   23.889                                                        : Surface Temperature
WITN.       DI-TORO/JEFFERIES                                             : Witness
YEAR.       88                                                            : Year
DFD .G/C3   1.114                                                         : N/A
DFL .M3     0.009                                                         : N/A
DFPH.       9.200                                                         : Drilling Fluid Ph
DFT .       SEA WATER GEL                                                 : N/A
DFV .S      35.000                                                        : N/A
MCST.DEGC   25.000                                                        : Mud Cake Sample Temperature
MFST.DEGC   25.000                                                        : Rmf Temperature
MSS .       FLOW LINE                                                     : N/A
MST .DEGC   25.000                                                        : N/A
RMCS.OHMM   0.650                                                         : Mud Cake Resistivity
RMFS.OHMM   0.248                                                         : Mud Filtrate Resistivity
RMS .OHMM   0.360                                                         : N/A
TCS .       0600  22/11                                                   : N/A
APD .M      35.800                                                        : N/A
BS  .IN     8.000                                                         : N/A
BS1 .       36                                                            : N/A
BS2 .       17.5                                                          : N/A
BS3 .       12 1/4                                                        : N/A
CBD1.M      79.000                                                        : Casing-Driller
CBD2.M      934.000                                                       : Casing Depth2
CBL1.M      79.000                                                        : Casing-Logger
CBL2.M      934.000                                                       : N/A
CS1 .       20                                                            : N/A
CS2 .       13.375                                                        : N/A
CW1 .LB/F   94.000                                                        : N/A
CW2 .LB/F   68.000                                                        : N/A
DMF .       DF                                                            : N/A
EDF .M      35.800                                                        : N/A
EGL .M      -15.300                                                       : N/A
LMF .       DF                                                            : N/A
PDAT.       M. SEA LEVEL                                                  : Permanent Datum
TDD .M      1607.000                                                      : N/A
TDL .M      1608.000                                                      : N/A
OS1 .       DIS/SLS                                                       : N/A
OS2 .       CST                                                           : N/A
OS3 .       SAT                                                           : N/A
R1  .       CHLORIDES 19000 PPM                                           : N/A
R2  .       1 1/2" STANDOFFS USED ON DIT AND SONIC                        : N/A
R3  .       DT USED FOR ITT                                               : N/A
R4  .       CIRCULATED FROM 0400 TO 0600 FOR LOGS                         : N/A
R5  .       TOOL STRING ECCENTRALIZED                                     : N/A
R6  .       LOW DTL SIGNAL STRENGTH DUE TO SHALE PACKED AROUND RECEIVERS  : N/A
TN1 .       DIC DA 1041                                                   : N/A
TN2 .       DIS EC 1231                                                   : N/A
TN3 .       SGC JAA 1088                                                  : N/A
TN4 .       SLC KB 885                                                    : N/A
TN5 .       SLS ZB 247                                                    : N/A
TN6 .       MRM 2710                                                      : N/A
TN7 .       SLM 629                                                       : N/A
TN8 .       NSM 870                                                       : N/A
TN9 .       IEM BF 603                                                    : N/A
MCT .       72                                                            : N/A
MDEC.DEG    0.400                                                         : Magnetic Decl
STYP.       HDSF                                                          : N/A
~A (ASCII Log Data)
# ...
615391.000          136.000         159.000         145.000         182.000         145.000           0.000           0.000           0.000           0.000           0.000           0.000           0.000           0.000           0.000           0.000         224.375           0.646         249.000          11.672          11.812          14.000         335.500
615359.000          166.000         136.000         154.000         155.000         135.000           0.000           0.000           0.000           0.000           0.000           0.000           0.000           0.000           0.000           0.000         224.375           0.646         249.000          11.672          11.812          15.000         335.500
615327.000          107.000         138.000         157.000         161.000         140.000           0.000           0.000           0.000           0.000           0.000           0.000           0.000           0.000           0.000           0.000         221.500           0.645         247.625          11.766          11.891          15.000         334.000
615295.000          147.000         135.000         145.000         151.000         147.000           0.000           0.000           0.000           0.000           0.000           0.000           0.000           0.000           0.000           0.000         225.625           0.645         249.000          11.766          11.891          15.000         336.750
615263.000          129.000         118.000          88.000         148.000         122.000           0.000           0.000           0.000           0.000           0.000           0.000           0.000           0.000           0.000           0.000         223.000           0.625         247.625          11.766          11.891          15.000         335.500
615231.000          130.000         123.000         123.000         150.000         119.000           0.000           0.000           0.000           0.000           0.000           0.000           0.000           0.000           0.000           0.000         225.625           0.625         249.000          11.844          11.891          14.000         336.750
615199.000          146.000         130.000         142.000         152.000         136.000           0.000           0.000           0.000           0.000           0.000           0.000           0.000           0.000           0.000           0.000         224.375           0.586         249.000          11.766          11.891          15.000         335.500
615167.000          153.000         129.000         131.000         177.000         157.000           0.000           0.000           0.000           0.000           0.000           0.000           0.000           0.000           0.000           0.000         224.250           0.570         247.625          11.766          11.891          14.000         336.750
615135.000           46.000          90.000          91.000         149.000         144.000           0.000           0.000           0.000           0.000           0.000           0.000           0.000           0.000           0.000           0.000         221.500           0.554         247.625          11.844          11.891          15.000         334.000
615103.000          136.000         136.000         111.000         164.000         147.000           0.000           0.000           0.000           0.000           0.000           0.000           0.000           0.000           0.000           0.000         224.250           0.560         247.625          11.766          11.812          14.000         336.750
615071.000          145.000         129.000         123.000         157.000         105.000           0.000           0.000           0.000           0.000           0.000           0.000           0.000           0.000           0.000           0.000         225.625           0.544         249.000          11.844          11.891          14.000         336.750
615039.000          144.000         117.000         144.000         143.000         113.000           0.000           0.000           0.000           0.000           0.000           0.000           0.000           0.000           0.000           0.000         221.500           0.510         246.125          11.844          11.891          15.000         335.500
615007.000          152.000         134.000         136.000         150.000         140.000           0.000           0.000           0.000           0.000           0.000           0.000           0.000           0.000           0.000           0.000         224.250           0.519         247.625          11.766          11.891          14.000         336.750
614975.000          144.000         133.000         141.000         148.000         129.000           0.000           0.000           0.000           0.000           0.000           0.000           0.000           0.000           0.000           0.000         220.000           0.506         246.125          11.766          11.812          14.000         334.000
614943.000          172.000         146.000         146.000         147.000         149.000           0.000           0.000           0.000           0.000           0.000           0.000           0.000           0.000           0.000           0.000         225.750           0.494         247.625          11.766          11.812          15.000         338.250
614911.000          151.000         133.000         164.000         134.000         127.000           0.000           0.000           0.000           0.000           0.000           0.000           0.000           0.000           0.000           0.000         221.500           0.483         247.625          11.766          11.891          15.000         334.000
614879.000          172.000         131.000         132.000         164.000         165.000           0.000           0.000           0.000           0.000           0.000           0.000           0.000           0.000           0.000           0.000         221.500           0.473         246.125          11.766          11.891          14.000         335.500
614847.000          151.000         131.000         141.000         145.000         127.000           0.000           0.000           0.000           0.000           0.000           0.000           0.000           0.000           0.000           0.000         225.625           0.463         249.000          11.766          11.891          15.000         336.750
614815.000          170.000         176.000         160.000         157.000         174.000           0.000           0.000           0.000           0.000           0.000           0.000           0.000           0.000           0.000           0.000         221.500           0.455         246.125          11.766          11.891          14.000         335.500
614783.000          145.000         133.000         119.000         139.000         120.000           0.000           0.000           0.000           0.000           0.000           0.000           0.000           0.000           0.000           0.000         223.000           0.446         247.625          11.766          11.891          14.000         335.500
614751.000          145.000         127.000         129.000         141.000         145.000           0.000           0.000           0.000           0.000           0.000           0.000           0.000           0.000           0.000           0.000         220.000           0.438         246.125          11.766          11.891          14.000         334.000
614719.000          143.000         132.000         138.000         144.000         137.000           0.000           0.000           0.000           0.000           0.000           0.000           0.000           0.000           0.000           0.000         225.625           0.451         249.000          11.766          11.891          14.000         336.750
