~Version Information Section
VERS.          2.0                               : CWLS Log ASCII Standard - VERSION 2.0
WRAP.          NO                                : One Line per depth step
PROD.          TotalDepth                        : LAS Producer
PROG.          TotalDepth.LIS.ToLAS 0.1.1        : LAS Program name and version
CREA.          2020-09-07 10:37:27.185570 UTC    : LAS Creation date [YYYY-mm-dd HH MM SS.us UTC]
SOURCE.        DILLSON-1_WELL_LOGS_FILE-049.LIS  : LIS File Name
LOGICAL-FILE.  0                                 : Logical File number in the LIS file
~Well Information Section
#MNEM.UNIT  Value           Description
#---------  -----           -----------
STRT.FEET   5280.792        : START
STOP.FEET   5079.725        : STOP
STEP.FEET   -0.267          : STEP
NULL.       -999.250        : NULL VALUE
COUN.       N.A.            : County
CTRY.       AUSTRALIA       : COUNTRY
LATI.       21 23 06.314    : Latitude
LONG.       115 10 56.336   : Longitude
STAT.       WEST AUSTRALIA  : STATE
DATE.       17-OCT-88       : DATE
~Curve Information Section
#MNEM.UNIT  API CODE      Curve Description
#---------  ------------  -----------------
X   ..1IN   00 001 00 00  : X axis (implied)
FC0 .       75   0  0  0  : N/A
FC1 .       75   0  0  0  : N/A
FC2 .       75   0  0  0  : N/A
FC3 .       75   0  0  0  : N/A
FC4 .       75   0  0  0  : N/A
STAT.       75   0  0  0  : N/A
REF .       75   0  0  0  : N/A
REFC.       75   0  0  0  : N/A
EMEX.       75   0  0  0  : N/A
PADP.       75   0  0  0  : Mrpa Differential Pressure
TEMP.       75   0  0  0  : Temperature
FEP1.       75   0  0  0  : None
FEP2.       75   0  0  0  : None
RAC1.       75   0  0  0  : N/A
RAC2.       75   0  0  0  : N/A
P1AZ.DEG    75 630  1  0  : Pad 1 Azimuth
DEVI.DEG    75 620  1  0  : Deviation
HAZI.DEG    75 630  1  0  : Hole Azimuth
C1  .IN     75 280 13  0  : Caliper 1
C2  .IN     75 280 24  0  : Caliper 2
FEP .V       1   0  0  0  : N/A
RB  .DEG    75 631  1  0  : Relative Bearing
~Parameter Information Section
#MNEM.UNIT  Value                                                         Description
#---------  -----                                                         -----------
CLAB.       COUNTY                                                        : County
CN  .       WESTERN MINING CORP.                                          : N/A
FN  .       WILDCAT                                                       : N/A
NATI.       AUSTRALIA                                                     : Nation
SLAB.       STATE                                                         : State/Province Label
WN  .       DILLSON #1                                                    : N/A
BLI .M      1606.000                                                      : N/A
DAY .       22                                                            : N/A
ENGI.       SUSAN ROSE                                                    : Recorded By
LCC .       440.000                                                       : N/A
MONT.       11                                                            : Month
MRT .DEGC   72.000                                                        : N/A
REF .       ASJ-141025                                                    : N/A
RUN .       2                                                             : N/A
STEM.DEGC   23.889                                                        : Surface Temperature
WITN.       DI-TORO/JEFFERIES                                             : Witness
YEAR.       88                                                            : Year
DFD .G/C3   1.114                                                         : N/A
DFL .M3     0.009                                                         : N/A
DFPH.       9.200                                                         : Drilling Fluid Ph
DFT .       SEA WATER GEL                                                 : N/A
DFV .S      35.000                                                        : N/A
MCST.DEGC   25.000                                                        : Mud Cake Sample Temperature
MFST.DEGC   25.000                                                        : Rmf Temperature
MSS .       FLOW LINE                                                     : N/A
MST .DEGC   25.000                                                        : N/A
RMCS.OHMM   0.650                                                         : Mud Cake Resistivity
RMFS.OHMM   0.248                                                         : Mud Filtrate Resistivity
RMS .OHMM   0.360                                                         : N/A
TCS .       0600  22/11                                                   : N/A
APD .M      35.800                                                        : N/A
BS  .IN     8.000                                                         : N/A
BS1 .       36                                                            : N/A
BS2 .       17.5                                                          : N/A
BS3 .       12 1/4                                                        : N/A
CBD1.M      79.000                                                        : Casing-Driller
CBD2.M      934.000                                                       : Casing Depth2
CBL1.M      79.000                                                        : Casing-Logger
CBL2.M      934.000                                                       : N/A
CS1 .       20                                                            : N/A
CS2 .       13.375                                                        : N/A
CW1 .LB/F   94.000                                                        : N/A
CW2 .LB/F   68.000                                                        : N/A
DMF .       DF                                                            : N/A
EDF .M      35.800                                                        : N/A
EGL .M      -15.300                                                       : N/A
LMF .       DF                                                            : N/A
PDAT.       M. SEA LEVEL                                                  : Permanent Datum
TDD .M      1607.000                                                      : N/A
TDL .M      1608.000                                                      : N/A
OS1 .       DIS/SLS                                                       : N/A
OS2 .       CST                                                           : N/A
OS3 .       SAT                                                           : N/A
R1  .       CHLORIDES 19000 PPM                                           : N/A
R2  .       1 1/2" STANDOFFS USED ON DIT AND SONIC                        : N/A
R3  .       DT USED FOR ITT                                               : N/A
R4  .       CIRCULATED FROM 0400 TO 0600 FOR LOGS                         : N/A
R5  .       TOOL STRING ECCENTRALIZED                                     : N/A
R6  .       LOW DTL SIGNAL STRENGTH DUE TO SHALE PACKED AROUND RECEIVERS  : N/A
TN1 .       DIC DA 1041                                                   : N/A
TN2 .       DIS EC 1231                                                   : N/A
TN3 .       SGC JAA 1088                                                  : N/A
TN4 .       SLC KB 885                                                    : N/A
TN5 .       SLS ZB 247                                                    : N/A
TN6 .       MRM 2710                                                      : N/A
TN7 .       SLM 629                                                       : N/A
TN8 .       NSM 870                                                       : N/A
TN9 .       IEM BF 603                                                    : N/A
MCT .       72                                                            : N/A
MDEC.DEG    0.400                                                         : Magnetic Decl
STYP.       HDSF                                                          : N/A
~A (ASCII Log Data)
# ...
618207.000          181.000         167.000         159.000         155.000         130.000           0.000           0.000           0.000           0.000           0.000           0.000           0.000           0.000           0.000           0.000         201.500           0.430         184.250          11.766          11.891          15.000          17.266
618175.000          162.000         126.000         150.000         149.000         127.000           0.000           0.000           0.000           0.000           0.000           0.000           0.000           0.000           0.000           0.000         198.625           0.423         182.875          11.844          11.891          15.000          15.836
618143.000          144.000         157.000         146.000         145.000         134.000           0.000           0.000           0.000           0.000           0.000           0.000           0.000           0.000           0.000           0.000         201.500           0.436         185.750          11.766          11.891          15.000          15.836
618111.000           85.000         127.000         134.000         151.000         140.000           0.000           0.000           0.000           0.000           0.000           0.000           0.000           0.000           0.000           0.000         202.875           0.409         187.125          11.844          11.891          15.000          15.836
618079.000          154.000         137.000         139.000         179.000         151.000           0.000           0.000           0.000           0.000           0.000           0.000           0.000           0.000           0.000           0.000         201.500           0.423         185.750          11.844          11.984          15.000          15.836
618047.000          176.000         136.000         143.000         143.000         130.000           0.000           0.000           0.000           0.000           0.000           0.000           0.000           0.000           0.000           0.000         202.875           0.397         187.125          11.766          11.891          15.000          15.836
618015.000          170.000         166.000         132.000         138.000         136.000           0.000           0.000           0.000           0.000           0.000           0.000           0.000           0.000           0.000           0.000         203.000           0.392         188.625          11.766          11.891          15.000          14.398
617983.000          182.000         147.000         130.000         146.000         117.000           0.000           0.000           0.000           0.000           0.000           0.000           0.000           0.000           0.000           0.000         204.375           0.388         190.000          11.844          11.891          15.000          14.398
617951.000          186.000         170.000         151.000         148.000         175.000           0.000           0.000           0.000           0.000           0.000           0.000           0.000           0.000           0.000           0.000         202.875           0.383         190.000          11.844          11.891          15.000          12.953
617919.000          178.000         166.000         138.000         127.000         111.000           0.000           0.000           0.000           0.000           0.000           0.000           0.000           0.000           0.000           0.000         204.375           0.399         191.500          11.844          11.891          14.000          12.953
617887.000          170.000         147.000         147.000         153.000         130.000           0.000           0.000           0.000           0.000           0.000           0.000           0.000           0.000           0.000           0.000         201.500           0.395         190.000          11.766          11.891          15.000          11.516
617855.000          179.000         162.000         125.000         138.000         133.000           0.000           0.000           0.000           0.000           0.000           0.000           0.000           0.000           0.000           0.000         204.375           0.410         191.500          11.766          11.891          15.000          12.953
617823.000          183.000         149.000         133.000         145.000         147.000           0.000           0.000           0.000           0.000           0.000           0.000           0.000           0.000           0.000           0.000         205.750           0.404         195.750          11.844          11.891          14.000          10.078
617791.000          181.000         166.000         184.000          46.000         133.000           0.000           0.000           0.000           0.000           0.000           0.000           0.000           0.000           0.000           0.000         201.500           0.399         192.875          11.844          11.891          15.000           8.633
617759.000          181.000         130.000         194.000         195.000         134.000           0.000           0.000           0.000           0.000           0.000           0.000           0.000           0.000           0.000           0.000         205.875           0.414         197.250          11.766          11.812          15.000           8.633
617727.000          182.000         112.000         130.000         186.000         114.000           0.000           0.000           0.000           0.000           0.000           0.000           0.000           0.000           0.000           0.000         202.875           0.408         195.750          11.844          11.891          15.000           7.199
617695.000          186.000         164.000         152.000         177.000         144.000           0.000           0.000           0.000           0.000           0.000           0.000           0.000           0.000           0.000           0.000         207.250           0.422         200.125          11.766          11.812          14.000           7.199
617663.000          163.000         179.000         163.000         169.000         149.000           0.000           0.000           0.000           0.000           0.000           0.000           0.000           0.000           0.000           0.000         204.375           0.436         198.625          11.844          11.891          14.000           5.758
617631.000          163.000         167.000         140.000         183.000         142.000           0.000           0.000           0.000           0.000           0.000           0.000           0.000           0.000           0.000           0.000         207.250           0.469         201.500          11.766          11.812          14.000           5.758
617599.000          176.000         158.000         155.000         174.000         140.000           0.000           0.000           0.000           0.000           0.000           0.000           0.000           0.000           0.000           0.000         208.625           0.459         204.375          11.766          11.812          15.000           4.316
617567.000          180.000         147.000         165.000         169.000         193.000           0.000           0.000           0.000           0.000           0.000           0.000           0.000           0.000           0.000           0.000         207.250           0.491         203.000          11.844          11.812          15.000           4.316
617535.000          190.000         178.000         190.000         191.000         182.000           0.000           0.000           0.000           0.000           0.000           0.000           0.000           0.000           0.000           0.000         210.125           0.500         205.875          11.844          11.719          15.000           4.316
