~Version Information Section
VERS.          2.0                               : CWLS Log ASCII Standard - VERSION 2.0
WRAP.          NO                                : One Line per depth step
PROD.          TotalDepth                        : LAS Producer
PROG.          TotalDepth.LIS.ToLAS 0.1.1        : LAS Program name and version
CREA.          2020-09-07 10:37:27.185570 UTC    : LAS Creation date [YYYY-mm-dd HH MM SS.us UTC]
SOURCE.        DILLSON-1_WELL_LOGS_FILE-049.LIS  : LIS File Name
LOGICAL-FILE.  0                                 : Logical File number in the LIS file
~Well Information Section
#MNEM.UNIT  Value           Description
#---------  -----           -----------
STRT.FEET   5280.792        : START
STOP.FEET   5079.725        : STOP
STEP.FEET   -0.267          : STEP
NULL.       -999.250        : NULL VALUE
COUN.       N.A.            : County
CTRY.       AUSTRALIA       : COUNTRY
LATI.       21 23 06.314    : Latitude
LONG.       115 10 56.336   : Longitude
STAT.       WEST AUSTRALIA  : STATE
DATE.       17-OCT-88       : DATE
~Curve Information Section
#MNEM.UNIT  API CODE      Curve Description
#---------  ------------  -----------------
X   ..1IN   00 001 00 00  : X axis (implied)
FC0 .       75   0  0  0  : N/A
FC1 .       75   0  0  0  : N/A
FC2 .       75   0  0  0  : N/A
FC3 .       75   0  0  0  : N/A
FC4 .       75   0  0  0  : N/A
STAT.       75   0  0  0  : N/A
REF .       75   0  0  0  : N/A
REFC.       75   0  0  0  : N/A
EMEX.       75   0  0  0  : N/A
PADP.       75   0  0  0  : Mrpa Differential Pressure
TEMP.       75   0  0  0  : Temperature
FEP1.       75   0  0  0  : None
FEP2.       75   0  0  0  : None
RAC1.       75   0  0  0  : N/A
RAC2.       75   0  0  0  : N/A
P1AZ.DEG    75 630  1  0  : Pad 1 Azimuth
DEVI.DEG    75 620  1  0  : Deviation
HAZI.DEG    75 630  1  0  : Hole Azimuth
C1  .IN     75 280 13  0  : Caliper 1
C2  .IN     75 280 24  0  : Caliper 2
FEP .V       1   0  0  0  : N/A
RB  .DEG    75 631  1  0  : Relative Bearing
~Parameter Information Section
#MNEM.UNIT  Value                                                         Description
#---------  -----                                                         -----------
CLAB.       COUNTY                                                        : County
CN  .       WESTERN MINING CORP.                                          : N/A
FN  .       WILDCAT                                                       : N/A
NATI.       AUSTRALIA                                                     : Nation
SLAB.       STATE                                                         : State/Province Label
WN  .       DILLSON #1                                                    : N/A
BLI .M      1606.000                                                      : N/A
DAY .       22                                                            : N/A
ENGI.       SUSAN ROSE                                                    : Recorded By
LCC .       440.000                                                       : N/A
MONT.       11                                                            : Month
MRT .DEGC   72.000                                                        : N/A
REF .       ASJ-141025                                                    : N/A
RUN .       2                                                             : N/A
STEM.DEGC   23.889                                                        : Surface Temperature
WITN.       DI-TORO/JEFFERIES                                             : Witness
YEAR.       88                                                            : Year
DFD .G/C3   1.114                                                         : N/A
DFL .M3     0.009                                                         : N/A
DFPH.       9.200                                                         : Drilling Fluid Ph
DFT .       SEA WATER GEL                                                 : N/A
DFV .S      35.000                                                        : N/A
MCST.DEGC   25.000                                                        : Mud Cake Sample Temperature
MFST.DEGC   25.000                                                        : Rmf Temperature
MSS .       FLOW LINE                                                     : N/A
MST .DEGC   25.000                                                        : N/A
RMCS.OHMM   0.650                                                         : Mud Cake Resistivity
RMFS.OHMM   0.248                                                         : Mud Filtrate Resistivity
RMS .OHMM   0.360                                                         : N/A
TCS .       0600  22/11                                                   : N/A
APD .M      35.800                                                        : N/A
BS  .IN     8.000                                                         : N/A
BS1 .       36                                                            : N/A
BS2 .       17.5                                                          : N/A
BS3 .       12 1/4                                                        : N/A
CBD1.M      79.000                                                        : Casing-Driller
CBD2.M      934.000                                                       : Casing Depth2
CBL1.M      79.000                                                        : Casing-Logger
CBL2.M      934.000                                                       : N/A
CS1 .       20                                                            : N/A
CS2 .       13.375                                                        : N/A
CW1 .LB/F   94.000                                                        : N/A
CW2 .LB/F   68.000                                                        : N/A
DMF .       DF                                                            : N/A
EDF .M      35.800                                                        : N/A
EGL .M      -15.300                                                       : N/A
LMF .       DF                                                            : N/A
PDAT.       M. SEA LEVEL                                                  : Permanent Datum
TDD .M      1607.000                                                      : N/A
TDL .M      1608.000                                                      : N/A
OS1 .       DIS/SLS                                                       : N/A
OS2 .       CST                                                           : N/A
OS3 .       SAT                                                           : N/A
R1  .       CHLORIDES 19000 PPM                                           : N/A
R2  .       1 1/2" STANDOFFS USED ON DIT AND SONIC                        : N/A
R3  .       DT USED FOR ITT                                               : N/A
R4  .       CIRCULATED FROM 0400 TO 0600 FOR LOGS                         : N/A
R5  .       TOOL STRING ECCENTRALIZED                                     : N/A
R6  .       LOW DTL SIGNAL STRENGTH DUE TO SHALE PACKED AROUND RECEIVERS  : N/A
TN1 .       DIC DA 1041                                                   : N/A
TN2 .       DIS EC 1231                                                   : N/A
TN3 .       SGC JAA 1088                                                  : N/A
TN4 .       SLC KB 885                                                    : N/A
TN5 .       SLS ZB 247                                                    : N/A
TN6 .       MRM 2710                                                      : N/A
TN7 .       SLM 629                                                       : N/A
TN8 .       NSM 870                                                       : N/A
TN9 .       IEM BF 603                                                    : N/A
MCT .       72                                                            : N/A
MDEC.DEG    0.400                                                         : Magnetic Decl
STYP.       HDSF                                                          : N/A
~A (ASCII Log Data)
633695.000          211.000         209.000         211.000         210.000         207.000           0.000           0.000           0.000           0.000           0.000           0.000           0.000           0.000           0.000           0.000         201.500           0.199          90.688           3.463           3.648          22.000         110.875
633663.000          211.000         209.000         211.000         210.000         207.000           0.000           0.000           0.000           0.000           0.000           0.000           0.000           0.000           0.000           0.000         200.000           0.207          89.250           3.463           3.648          22.000         110.875
633631.000          211.000         209.000         211.000         210.000         206.000           0.000           0.000           0.000           0.000           0.000           0.000           0.000           0.000           0.000           0.000         202.875           0.234          90.688           3.379           3.648          22.000         112.312
633599.000          211.000         209.000         211.000         210.000         207.000           0.000           0.000           0.000           0.000           0.000           0.000           0.000           0.000           0.000           0.000         202.875           0.259          90.688           3.379           3.648          22.000         112.312
633567.000          211.000         209.000         211.000         210.000         207.000           0.000           0.000           0.000           0.000           0.000           0.000           0.000           0.000           0.000           0.000         202.875           0.283          90.688           3.379           3.648          22.000         112.312
633535.000          211.000         209.000         211.000         210.000         207.000           0.000           0.000           0.000           0.000           0.000           0.000           0.000           0.000           0.000           0.000         202.875           0.285          90.688           3.463           3.648          22.000         112.312
633503.000          211.000         209.000         211.000         210.000         207.000           0.000           0.000           0.000           0.000           0.000           0.000           0.000           0.000           0.000           0.000         200.000           0.288          89.250           3.463           3.648          22.000         110.875
633471.000          211.000         209.000         211.000         210.000         207.000           0.000           0.000           0.000           0.000           0.000           0.000           0.000           0.000           0.000           0.000         201.500           0.290          89.250           3.463           3.648          22.000         112.312
633439.000          210.000         209.000         211.000         210.000         207.000           0.000           0.000           0.000           0.000           0.000           0.000           0.000           0.000           0.000           0.000         200.000           0.292          89.250           3.463           3.648          22.000         110.875
633407.000          211.000         209.000         211.000         210.000         207.000           0.000           0.000           0.000           0.000           0.000           0.000           0.000           0.000           0.000           0.000         200.000           0.313          89.250           3.463           3.648          22.000         110.875
633375.000          210.000         209.000         211.000         210.000         207.000           0.000           0.000           0.000           0.000           0.000           0.000           0.000           0.000           0.000           0.000         201.500           0.333          89.250           3.463           3.734          22.000         112.312
633343.000          211.000         209.000         211.000         211.000         207.000           0.000           0.000           0.000           0.000           0.000           0.000           0.000           0.000           0.000           0.000         202.875           0.353          90.688           3.463           3.734          22.000         112.312
633311.000          211.000         209.000         211.000         210.000         207.000           0.000           0.000           0.000           0.000           0.000           0.000           0.000           0.000           0.000           0.000         201.500           0.351          90.688           3.463           3.734          22.000         110.875
633279.000          211.000         209.000         211.000         210.000         207.000           0.000           0.000           0.000           0.000           0.000           0.000           0.000           0.000           0.000           0.000         200.000           0.349          89.250           3.463           3.734          22.000         110.875
633247.000          211.000         209.000         212.000         210.000         207.000           0.000           0.000           0.000           0.000           0.000           0.000           0.000           0.000           0.000           0.000         198.625           0.347          87.812           3.463           3.734          22.000         110.875
633215.000          212.000         209.000         214.000         210.000         207.000           0.000           0.000           0.000           0.000           0.000           0.000           0.000           0.000           0.000           0.000         204.375           0.365          90.688           3.547           3.734          22.000         113.750
633183.000          212.000         210.000         212.000         211.000         207.000           0.000           0.000           0.000           0.000           0.000           0.000           0.000           0.000           0.000           0.000         201.500           0.382          89.250           3.635           3.818          22.000         112.312
633151.000          217.000         209.000         210.000         203.000         211.000           0.000           0.000           0.000           0.000           0.000           0.000           0.000           0.000           0.000           0.000         198.625           0.378          87.812           3.719           3.904          22.000         110.875
633119.000          211.000         209.000         219.000         209.000         204.000           0.000           0.000           0.000           0.000           0.000           0.000           0.000           0.000           0.000           0.000         198.625           0.395          87.812           3.805           3.992          21.000         110.875
633087.000          205.000         209.000         209.000         207.000         205.000           0.000           0.000           0.000           0.000           0.000           0.000           0.000           0.000           0.000           0.000         202.875           0.430          89.250           3.805           4.078          21.000         113.750
633055.000          219.000         207.000         211.000         207.000         192.000           0.000           0.000           0.000           0.000           0.000           0.000           0.000           0.000           0.000           0.000         202.875           0.443          90.688           4.148           4.332          20.000         112.312
633023.000          209.000         208.000         209.000         214.000         207.000           0.000           0.000           0.000           0.000           0.000           0.000           0.000           0.000           0.000           0.000         200.000           0.436          89.250           4.410           4.508          20.000         110.875
