~Version Information Section
VERS.          2.0                               : CWLS Log ASCII Standard - VERSION 2.0
WRAP.          NO                                : One Line per depth step
PROD.          TotalDepth                        : LAS Producer
PROG.          TotalDepth.LIS.ToLAS 0.1.1        : LAS Program name and version
CREA.          2020-09-07 10:37:27.185570 UTC    : LAS Creation date [YYYY-mm-dd HH MM SS.us UTC]
SOURCE.        DILLSON-1_WELL_LOGS_FILE-049.LIS  : LIS File Name
LOGICAL-FILE.  0                                 : Logical File number in the LIS file
~Well Information Section
#MNEM.UNIT  Value           Description
#---------  -----           -----------
STRT.FEET   5280.792        : START
STOP.FEET   5079.725        : STOP
STEP.FEET   -0.267          : STEP
NULL.       -999.250        : NULL VALUE
COUN.       N.A.            : County
CTRY.       AUSTRALIA       : COUNTRY
LATI.       21 23 06.314    : Latitude
LONG.       115 10 56.336   : Longitude
STAT.       WEST AUSTRALIA  : STATE
DATE.       17-OCT-88       : DATE
~Curve Information Section
#MNEM.UNIT  API CODE      Curve Description
#---------  ------------  -----------------
X   ..1IN   00 001 00 00  : X axis (implied)
FC0 .       75   0  0  0  : N/A
FC1 .       75   0  0  0  : N/A
FC2 .       75   0  0  0  : N/A
FC3 .       75   0  0  0  : N/A
FC4 .       75   0  0  0  : N/A
STAT.       75   0  0  0  : N/A
REF .       75   0  0  0  : N/A
REFC.       75   0  0  0  : N/A
EMEX.       75   0  0  0  : N/A
PADP.       75   0  0  0  : Mrpa Differential Pressure
TEMP.       75   0  0  0  : Temperature
FEP1.       75   0  0  0  : None
FEP2.       75   0  0  0  : None
RAC1.       75   0  0  0  : N/A
RAC2.       75   0  0  0  : N/A
P1AZ.DEG    75 630  1  0  : Pad 1 Azimuth
DEVI.DEG    75 620  1  0  : Deviation
HAZI.DEG    75 630  1  0  : Hole Azimuth
C1  .IN     75 280 13  0  : Caliper 1
C2  .IN     75 280 24  0  : Caliper 2
FEP .V       1   0  0  0  : N/A
RB  .DEG    75 631  1  0  : Relative Bearing
~Parameter Information Section
#MNEM.UNIT  Value                                                         Description
#---------  -----                                                         -----------
CLAB.       COUNTY                                                        : County
CN  .       WESTERN MINING CORP.                                          : N/A
FN  .       WILDCAT                                                       : N/A
NATI.       AUSTRALIA                                                     : Nation
SLAB.       STATE                                                         : State/Province Label
WN  .       DILLSON #1                                                    : N/A
BLI .M      1606.000                                                      : N/A
DAY .       22                                                            : N/A
ENGI.       SUSAN ROSE                                                    : Recorded By
LCC .       440.000                                                       : N/A
MONT.       11                                                            : Month
MRT .DEGC   72.000                                                        : N/A
REF .       ASJ-141025                                                    : N/A
RUN .       2                                                             : N/A
STEM.DEGC   23.889                                                        : Surface Temperature
WITN.       DI-TORO/JEFFERIES                                             : Witness
YEAR.       88                                                            : Year
DFD .G/C3   1.114                                                         : N/A
DFL .M3     0.009                                                         : N/A
DFPH.       9.200                                                         : Drilling Fluid Ph
DFT .       SEA WATER GEL                                                 : N/A
DFV .S      35.000                                                        : N/A
MCST.DEGC   25.000                                                        : Mud Cake Sample Temperature
MFST.DEGC   25.000                                                        : Rmf Temperature
MSS .       FLOW LINE                                                     : N/A
MST .DEGC   25.000                                                        : N/A
RMCS.OHMM   0.650                                                         : Mud Cake Resistivity
RMFS.OHMM   0.248                                                         : Mud Filtrate Resistivity
RMS .OHMM   0.360                                                         : N/A
TCS .       0600  22/11                                                   : N/A
APD .M      35.800                                                        : N/A
BS  .IN     8.000                                                         : N/A
BS1 .       36                                                            : N/A
BS2 .       17.5                                                          : N/A
BS3 .       12 1/4                                                        : N/A
CBD1.M      79.000                                                        : Casing-Driller
CBD2.M      934.000                                                       : Casing Depth2
CBL1.M      79.000                                                        : Casing-Logger
CBL2.M      934.000                                                       : N/A
CS1 .       20                                                            : N/A
CS2 .       13.375                                                        : N/A
CW1 .LB/F   94.000                                                        : N/A
CW2 .LB/F   68.000                                                        : N/A
DMF .       DF                                                            : N/A
EDF .M      35.800                                                        : N/A
EGL .M      -15.300                                                       : N/A
LMF .       DF                                                            : N/A
PDAT.       M. SEA LEVEL                                                  : Permanent Datum
TDD .M      1607.000                                                      : N/A
TDL .M      1608.000                                                      : N/A
OS1 .       DIS/SLS                                                       : N/A
OS2 .       CST                                                           : N/A
OS3 .       SAT                                                           : N/A
R1  .       CHLORIDES 19000 PPM                                           : N/A
R2  .       1 1/2" STANDOFFS USED ON DIT AND SONIC                        : N/A
R3  .       DT USED FOR ITT                                               : N/A
R4  .       CIRCULATED FROM 0400 TO 0600 FOR LOGS                         : N/A
R5  .       TOOL STRING ECCENTRALIZED                                     : N/A
R6  .       LOW DTL SIGNAL STRENGTH DUE TO SHALE PACKED AROUND RECEIVERS  : N/A
TN1 .       DIC DA 1041                                                   : N/A
TN2 .       DIS EC 1231                                                   : N/A
TN3 .       SGC JAA 1088                                                  : N/A
TN4 .       SLC KB 885                                                    : N/A
TN5 .       SLS ZB 247                                                    : N/A
TN6 .       MRM 2710                                                      : N/A
TN7 .       SLM 629                                                       : N/A
TN8 .       NSM 870                                                       : N/A
TN9 .       IEM BF 603                                                    : N/A
MCT .       72                                                            : N/A
MDEC.DEG    0.400                                                         : Magnetic Decl
STYP.       HDSF                                                          : N/A
~A (ASCII Log Data)
# ...
632287.000          149.000         173.000         139.000         154.000         143.000           0.000           0.000           0.000           0.000           0.000           0.000           0.000           0.000           0.000           0.000         220.250           0.347         341.250          12.023          11.984          16.000         239.000
632255.000          138.000         143.000         111.000         146.000         148.000           0.000           0.000           0.000           0.000           0.000           0.000           0.000           0.000           0.000           0.000         221.625           0.366         328.250          12.023          12.062          16.000         253.375
632223.000          137.000         107.000         137.000         152.000         162.000           0.000           0.000           0.000           0.000           0.000           0.000           0.000           0.000           0.000           0.000         221.500           0.423         311.000          12.109          12.148          16.000         270.500
632191.000          153.000         125.000         156.000         159.000         142.000           0.000           0.000           0.000           0.000           0.000           0.000           0.000           0.000           0.000           0.000         221.375           0.457         303.750          12.109          12.148          16.000         277.750
632159.000          147.000         125.000         143.000         155.000         140.000           0.000           0.000           0.000           0.000           0.000           0.000           0.000           0.000           0.000           0.000         217.125           0.488         296.500          12.109          12.148          16.000         280.750
632127.000          166.000         147.000         141.000         167.000         142.000           0.000           0.000           0.000           0.000           0.000           0.000           0.000           0.000           0.000           0.000         214.125           0.537         292.250          12.109          12.062          15.000         282.000
632095.000          137.000         159.000         147.000         143.000         133.000           0.000           0.000           0.000           0.000           0.000           0.000           0.000           0.000           0.000           0.000         207.125           0.563         286.500          12.023          12.062          15.000         280.750
632063.000          151.000         191.000         141.000         143.000         138.000           0.000           0.000           0.000           0.000           0.000           0.000           0.000           0.000           0.000           0.000         208.375           0.608         286.500          12.109          12.148          15.000         282.000
632031.000          140.000         129.000         137.000         149.000         135.000           0.000           0.000           0.000           0.000           0.000           0.000           0.000           0.000           0.000           0.000         202.625           0.610         283.500          12.109          12.148          15.000         279.250
631999.000          136.000         126.000         154.000         143.000         139.000           0.000           0.000           0.000           0.000           0.000           0.000           0.000           0.000           0.000           0.000         205.625           0.652         285.000          12.109          12.148          15.000         280.750
631967.000          149.000         154.000         129.000         140.000         129.000           0.000           0.000           0.000           0.000           0.000           0.000           0.000           0.000           0.000           0.000         204.125           0.671         283.500          12.109          12.148          15.000         280.750
631935.000          143.000         134.000         132.000         122.000         132.000           0.000           0.000           0.000           0.000           0.000           0.000           0.000           0.000           0.000           0.000         202.625           0.669         283.500          12.109          12.148          15.000         279.250
631903.000          134.000         132.000         137.000         137.000         155.000           0.000           0.000           0.000           0.000           0.000           0.000           0.000           0.000           0.000           0.000         202.625           0.688         283.500          12.109          12.148          15.000         279.250
631871.000          146.000         124.000         136.000         106.000         192.000           0.000           0.000           0.000           0.000           0.000           0.000           0.000           0.000           0.000           0.000         201.125           0.705         282.000          12.109          12.148          15.000         279.250
631839.000          104.000         110.000         100.000         135.000         116.000           0.000           0.000           0.000           0.000           0.000           0.000           0.000           0.000           0.000           0.000         202.625           0.720         283.500          12.109          12.148          15.000         279.250
631807.000           58.000          50.000         138.000         146.000          74.000           0.000           0.000           0.000           0.000           0.000           0.000           0.000           0.000           0.000           0.000         201.125           0.735         282.000          12.109          12.148          15.000         279.250
631775.000          151.000          99.000         140.000         156.000         139.000           0.000           0.000           0.000           0.000           0.000           0.000           0.000           0.000           0.000           0.000         202.625           0.750         282.000          12.023          12.148          15.000         280.750
631743.000          148.000         160.000         140.000         138.000         132.000           0.000           0.000           0.000           0.000           0.000           0.000           0.000           0.000           0.000           0.000         201.125           0.743         282.000          12.109          12.148          15.000         279.250
631711.000          149.000         123.000         129.000         147.000         142.000           0.000           0.000           0.000           0.000           0.000           0.000           0.000           0.000           0.000           0.000         201.375           0.756         280.750          12.109          12.148          15.000         280.750
631679.000          126.000         174.000         140.000         149.000         124.000           0.000           0.000           0.000           0.000           0.000           0.000           0.000           0.000           0.000           0.000         202.625           0.769         280.750          12.109          12.148          15.000         282.000
631647.000          208.000         114.000         128.000         133.000         127.000           0.000           0.000           0.000           0.000           0.000           0.000           0.000           0.000           0.000           0.000         201.125           0.781         279.250          12.109          12.148          15.000         282.000
631615.000          153.000         113.000         110.000         130.000         132.000           0.000           0.000           0.000           0.000           0.000           0.000           0.000           0.000           0.000           0.000         204.125           0.772         280.750          12.109          12.148          15.000         283.500
