~Version Information Section
VERS.          2.0                               : CWLS Log ASCII Standard - VERSION 2.0
WRAP.          NO                                : One Line per depth step
PROD.          TotalDepth                        : LAS Producer
PROG.          TotalDepth.LIS.ToLAS 0.1.1        : LAS Program name and version
CREA.          2020-09-07 10:37:27.185570 UTC    : LAS Creation date [YYYY-mm-dd HH MM SS.us UTC]
SOURCE.        DILLSON-1_WELL_LOGS_FILE-049.LIS  : LIS File Name
LOGICAL-FILE.  0                                 : Logical File number in the LIS file
~Well Information Section
#MNEM.UNIT  Value           Description
#---------  -----           -----------
STRT.FEET   5280.792        : START
STOP.FEET   5079.725        : STOP
STEP.FEET   -0.267          : STEP
NULL.       -999.250        : NULL VALUE
COUN.       N.A.            : County
CTRY.       AUSTRALIA       : COUNTRY
LATI.       21 23 06.314    : Latitude
LONG.       115 10 56.336   : Longitude
STAT.       WEST AUSTRALIA  : STATE
DATE.       17-OCT-88       : DATE
~Curve Information Section
#MNEM.UNIT  API CODE      Curve Description
#---------  ------------  -----------------
X   ..1IN   00 001 00 00  : X axis (implied)
FC0 .       75   0  0  0  : N/A
FC1 .       75   0  0  0  : N/A
FC2 .       75   0  0  0  : N/A
FC3 .       75   0  0  0  : N/A
FC4 .       75   0  0  0  : N/A
STAT.       75   0  0  0  : N/A
REF .       75   0  0  0  : N/A
REFC.       75   0  0  0  : N/A
EMEX.       75   0  0  0  : N/A
PADP.       75   0  0  0  : Mrpa Differential Pressure
TEMP.       75   0  0  0  : Temperature
FEP1.       75   0  0  0  : None
FEP2.       75   0  0  0  : None
RAC1.       75   0  0  0  : N/A
RAC2.       75   0  0  0  : N/A
P1AZ.DEG    75 630  1  0  : Pad 1 Azimuth
DEVI.DEG    75 620  1  0  : Deviation
HAZI.DEG    75 630  1  0  : Hole Azimuth
C1  .IN     75 280 13  0  : Caliper 1
C2  .IN     75 280 24  0  : Caliper 2
FEP .V       1   0  0  0  : N/A
RB  .DEG    75 631  1  0  : Relative Bearing
~Parameter Information Section
#MNEM.UNIT  Value                                                         Description
#---------  -----                                                         -----------
CLAB.       COUNTY                                                        : County
CN  .       WESTERN MINING CORP.                                          : N/A
FN  .       WILDCAT                                                       : N/A
NATI.       AUSTRALIA                                                     : Nation
SLAB.       STATE                                                         : State/Province Label
WN  .       DILLSON #1                                                    : N/A
BLI .M      1606.000                                                      : N/A
DAY .       22                                                            : N/A
ENGI.       SUSAN ROSE                                                    : Recorded By
LCC .       440.000                                                       : N/A
MONT.       11                                                            : Month
MRT .DEGC   72.000                                                        : N/A
REF .       ASJ-141025                                                    : N/A
RUN .       2                                                             : N/A
STEM.DEGC   23.889                                                        : Surface Temperature
WITN.       DI-TORO/JEFFERIES                                             : Witness
YEAR.       88                                                            : Year
DFD .G/C3   1.114                                                         : N/A
DFL .M3     0.009                                                         : N/A
DFPH.       9.200                                                         : Drilling Fluid Ph
DFT .       SEA WATER GEL                                                 : N/A
DFV .S      35.000                                                        : N/A
MCST.DEGC   25.000                                                        : Mud Cake Sample Temperature
MFST.DEGC   25.000                                                        : Rmf Temperature
MSS .       FLOW LINE                                                     : N/A
MST .DEGC   25.000                                                        : N/A
RMCS.OHMM   0.650                                                         : Mud Cake Resistivity
RMFS.OHMM   0.248                                                         : Mud Filtrate Resistivity
RMS .OHMM   0.360                                                         : N/A
TCS .       0600  22/11                                                   : N/A
APD .M      35.800                                                        : N/A
BS  .IN     8.000                                                         : N/A
BS1 .       36                                                            : N/A
BS2 .       17.5                                                          : N/A
BS3 .       12 1/4                                                        : N/A
CBD1.M      79.000                                                        : Casing-Driller
CBD2.M      934.000                                                       : Casing Depth2
CBL1.M      79.000                                                        : Casing-Logger
CBL2.M      934.000                                                       : N/A
CS1 .       20                                                            : N/A
CS2 .       13.375                                                        : N/A
CW1 .LB/F   94.000                                                        : N/A
CW2 .LB/F   68.000                                                        : N/A
DMF .       DF                                                            : N/A
EDF .M      35.800                                                        : N/A
EGL .M      -15.300                                                       : N/A
LMF .       DF                                                            : N/A
PDAT.       M. SEA LEVEL                                                  : Permanent Datum
TDD .M      1607.000                                                      : N/A
TDL .M      1608.000                                                      : N/A
OS1 .       DIS/SLS                                                       : N/A
OS2 .       CST                                                           : N/A
OS3 .       SAT                                                           : N/A
R1  .       CHLORIDES 19000 PPM                                           : N/A
R2  .       1 1/2" STANDOFFS USED ON DIT AND SONIC                        : N/A
R3  .       DT USED FOR ITT                                               : N/A
R4  .       CIRCULATED FROM 0400 TO 0600 FOR LOGS                         : N/A
R5  .       TOOL STRING ECCENTRALIZED                                     : N/A
R6  .       LOW DTL SIGNAL STRENGTH DUE TO SHALE PACKED AROUND RECEIVERS  : N/A
TN1 .       DIC DA 1041                                                   : N/A
TN2 .       DIS EC 1231                                                   : N/A
TN3 .       SGC JAA 1088                                                  : N/A
TN4 .       SLC KB 885                                                    : N/A
TN5 .       SLS ZB 247                                                    : N/A
TN6 .       MRM 2710                                                      : N/A
TN7 .       SLM 629                                                       : N/A
TN8 .       NSM 870                                                       : N/A
TN9 .       IEM BF 603                                                    : N/A
MCT .       72                                                            : N/A
MDEC.DEG    0.400                                                         : Magnetic Decl
STYP.       HDSF                                                          : N/A
~A (ASCII Log Data)
# ...
610463.000          179.000         143.000         167.000         143.000         155.000           0.000           0.000           0.000           0.000           0.000           0.000           0.000           0.000           0.000           0.000         223.000           0.384         241.875          11.844          11.891          14.000         341.250
610431.000          183.000         170.000         185.000         149.000         171.000           0.000           0.000           0.000           0.000           0.000           0.000           0.000           0.000           0.000           0.000         227.125           0.400         244.750          11.844          11.891          14.000         342.500
610399.000          162.000         171.000         185.000         142.000         151.000           0.000           0.000           0.000           0.000           0.000           0.000           0.000           0.000           0.000           0.000         223.000           0.395         241.875          11.766          11.891          14.000         341.250
610367.000          185.000         163.000         182.000         155.000         178.000           0.000           0.000           0.000           0.000           0.000           0.000           0.000           0.000           0.000           0.000         225.625           0.410         243.250          11.766          11.891          14.000         342.500
610335.000          185.000         174.000         186.000         137.000         167.000           0.000           0.000           0.000           0.000           0.000           0.000           0.000           0.000           0.000           0.000         227.125           0.404         244.750          11.766          11.891          14.000         342.500
610303.000          180.000         164.000         186.000         145.000         172.000           0.000           0.000           0.000           0.000           0.000           0.000           0.000           0.000           0.000           0.000         224.250           0.399         241.875          11.766          11.891          14.000         342.500
610271.000          186.000         172.000         183.000          51.000         163.000           0.000           0.000           0.000           0.000           0.000           0.000           0.000           0.000           0.000           0.000         225.625           0.394         243.250          11.766          11.891          14.000         342.500
610239.000          189.000         175.000         188.000         173.000         188.000           0.000           0.000           0.000           0.000           0.000           0.000           0.000           0.000           0.000           0.000         224.250           0.410         241.875          11.766          11.891          14.000         342.500
610207.000          192.000         175.000         190.000         184.000         171.000           0.000           0.000           0.000           0.000           0.000           0.000           0.000           0.000           0.000           0.000         225.625           0.404         243.250          11.766          11.891          14.000         342.500
610175.000          183.000         180.000         189.000         189.000         170.000           0.000           0.000           0.000           0.000           0.000           0.000           0.000           0.000           0.000           0.000         224.250           0.398         241.875          11.844          11.891          14.000         342.500
610143.000          184.000         173.000         189.000         181.000         142.000           0.000           0.000           0.000           0.000           0.000           0.000           0.000           0.000           0.000           0.000         225.625           0.414         243.250          11.766          11.891          14.000         342.500
610111.000          184.000         156.000         189.000         194.000         146.000           0.000           0.000           0.000           0.000           0.000           0.000           0.000           0.000           0.000           0.000         224.250           0.408         241.875          11.766          11.891          14.000         342.500
610079.000          147.000         168.000         190.000         157.000         146.000           0.000           0.000           0.000           0.000           0.000           0.000           0.000           0.000           0.000           0.000         225.750           0.422         241.875          11.844          11.891          14.000         344.000
610047.000          169.000         177.000         187.000         185.000         146.000           0.000           0.000           0.000           0.000           0.000           0.000           0.000           0.000           0.000           0.000         224.250           0.416         240.375          11.766          11.891          14.000         344.000
610015.000          186.000         174.000         188.000         187.000         154.000           0.000           0.000           0.000           0.000           0.000           0.000           0.000           0.000           0.000           0.000         224.375           0.430         239.000          11.844          11.891          14.000         345.500
609983.000          186.000         162.000         192.000         189.000         140.000           0.000           0.000           0.000           0.000           0.000           0.000           0.000           0.000           0.000           0.000         224.250           0.423         240.375          11.766          11.891          14.000         344.000
609951.000          186.000         174.000         190.000         182.000         133.000           0.000           0.000           0.000           0.000           0.000           0.000           0.000           0.000           0.000           0.000         222.875           0.437         239.000          11.844          11.891          14.000         344.000
609919.000           81.000         154.000         186.000          48.000          28.000           0.000           0.000           0.000           0.000           0.000           0.000           0.000           0.000           0.000           0.000         222.875           0.429         239.000          11.766          11.891          13.000         344.000
609887.000          187.000         147.000         153.000         152.000         177.000           0.000           0.000           0.000           0.000           0.000           0.000           0.000           0.000           0.000           0.000         221.375           0.442         237.500          11.766          11.891          14.000         344.000
609855.000          186.000         176.000         182.000         148.000         170.000           0.000           0.000           0.000           0.000           0.000           0.000           0.000           0.000           0.000           0.000         221.375           0.435         239.000          11.766          11.891          14.000         342.500
609823.000          186.000         173.000         176.000         169.000         178.000           0.000           0.000           0.000           0.000           0.000           0.000           0.000           0.000           0.000           0.000         219.875           0.427         237.500          11.844          11.891          14.000         342.500
609791.000          183.000         176.000         186.000         180.000         174.000           0.000           0.000           0.000           0.000           0.000           0.000           0.000           0.000           0.000           0.000         221.375           0.441         237.500          11.844          11.891          14.000         344.000
