~Version Information Section
VERS.          2.0                             : CWLS Log ASCII Standard - VERSION 2.0
WRAP.          NO                              : One Line per depth step
PROD.          TotalDepth                      : LAS Producer
PROG.          TotalDepth.RP66V1.ToLAS 0.1.2   : LAS Program name and version
CREA.          2020-10-10 08:46:39.579369 UTC  : LAS Creation date [YYYY-mm-dd HH MM SS.us UTC]
DLIS_CREA.     2012-03-07 10:00:49.000000 UTC  : DLIS Creation date and time [YYYY-mm-dd HH MM SS.us UTC]
SOURCE.        BASIC_FILE.dlis                 : DLIS File Name
FILE-ID.       HES INSITE.1                    : File Identification Number
LOGICAL-FILE.  0                               : Logical File number in the DLIS file
FRAME-ARRAY.   50                              : Identity of the Frame Array in the Logical File
~Well Information Section
#MNEM.UNIT  DATA                         DESCRIPTION
#----.----  ----                         -----------
STRT.m      2889.4                       : Start X
STOP.m      2954.199999999941            : Stop X, frames 649 out of 649 available.
STEP.m      0.09999999999990905          : Step (average)
NULL.                                    :
COMP.       BURU ENERGY LIMITED          :
WELL.       VALHALLA NORTH 1             :
FLD .       VALHALLA                     :
LOC .                                    :
PROV.                                    :
CNTY.                                    :
STAT.       WA                           : STATE NAME
CTRY.                                    :
UWI .                                    :
API .                                    :
SRVC.       Halliburton                  :
DATE.       2012-03-07 10 00 49.000 STD  :
~Parameter Information Section
#MNEM.UNIT               Value                           Description
#---------               -----                           -----------
LOC .                    LATITUDE  18DEG 01' 32.8'' S    : LOCATION
SVCO.                    Halliburton                     : SERVICECONAME
IQVR.                    R3.2.0                          : WLIQ VERSION
STAT.                    WA                              : STATE NAME
COUN.                    AUSTRALIA                       : COUNTRY NAME
SON .                    9262611                         : JOB NUMBER
SECT.                    N/A                             : SECTION
TOWN.                    N/A                             : TOWNSHIP
RANG.                    N/A                             : RANGE
APIN.                    N/A                             : API S/N
CN  .                    BURU ENERGY LIMITED             : CUSTOMER NAME
WN  .                    VALHALLA NORTH 1                : WELL NAME
FN  .                    VALHALLA                        : FIELD NAME
RIG .                    ENSIGN RIG #32                  : RIG NAME
PDAT.                    MSL                             : PERMANENT DATUM
LMF .                    RT                              : LOG MEAS FROM
DMF .                    RT                              : DRILL MEAS FROM
FL1 .                    LATITUDE  18DEG 01' 32.8'' S    : LOCATIONLINE1
FL2 .                    LONGITUDE  124DEG 43' 47.1'' E  : LOCATIONLINE2
FL3 .                    EASTING  683112                 : LOCATIONLINE3
FL4 .                    NORTHING  8006107               : LOCATIONLINE4
FL5 .                    GDA ZONE 51                     : LOCATIONLINE5
DATE.                    06-Mar-2012                     : DATE
LCC .                    280                             : PRODUCER-CODE
EDF .m                   114.9000015258789               : DF ELEV
EPD .m                   0.0                             : ELEVATION
EGL .m                   109.0                           : GL ELEV
GVFD.g                   1.0                             : GRAVITY FIELD
EKB .m                   114.9000015258789               : KB ELEV
TVDS.m                   5.90000057220459                : TVDSS CORRECTN
APD .m                   5.90000057220459                : DEPTH ABOVE PD
DDEV.deg                 1.8200000524520874              : MAX INC
DDEG.m                   2225.169921875                  : MAX INC DEPTH
DEP_Serial_Number.       PROT01                          : Depth Panel Serial Number
DEP_Tool_Class.          Surface Panels                  : Depth Panel Tool Class
DEP_Max_Temp.degC        48.900001525878906              : Depth Panel Max Temp
DEP_Max_Speed.mpm        0.0                             : Depth Panel Max Speed
DEP_Max_Pressure.psia    0.0                             : Depth Panel Max Pressure
DEP_Tool_Length.m        0.0                             : Depth Panel Tool Length
DEP_Tool_Diameter.mm     0.0                             : Depth Panel Tool Diameter
DEP_Tool_Weight.lbs      0.0                             : Depth Panel Tool Weight
DEP_Position.m           0.0                             : Depth Panel Position
RWCH_Serial_Number.      11435221                        : RWCH Serial Number
RWCH_Tool_Class.         Cable Head                      : RWCH Tool Class
RWCH_Max_Temp.degC       204.39999389648438              : RWCH Max Temp
RWCH_Max_Speed.mpm       91.0                            : RWCH Max Speed
RWCH_Max_Pressure.psia   20000.0                         : RWCH Max Pressure
RWCH_Tool_Length.m       1.899999976158142               : RWCH Tool Length
RWCH_Tool_Diameter.mm    92.07499694824219               : RWCH Tool Diameter
RWCH_Tool_Weight.lbs     135.0                           : RWCH Tool Weight
RWCH_Position.m          0.0                             : RWCH Position
RWCH_Accum_Length.m      34.720001220703125              : RWCH Accum Length
D4TG_Serial_Number.      434                             : D4TG Serial Number
D4TG_Tool_Class.         DITS                            : D4TG Tool Class
D4TG_Max_Temp.degC       176.6999969482422               : D4TG Max Temp
D4TG_Max_Speed.mpm       18.0                            : D4TG Max Speed
D4TG_Max_Pressure.psia   20000.0                         : D4TG Max Pressure
D4TG_Tool_Length.m       2.049999952316284               : D4TG Tool Length
D4TG_Tool_Diameter.mm    92.07499694824219               : D4TG Tool Diameter
D4TG_Tool_Weight.lbs     110.0                           : D4TG Tool Weight
D4TG_Position.m          0.0                             : D4TG Position
D4TG_Accum_Length.m      27.639999389648438              : D4TG Accum Length
~Curve Information Section
#MNEM.UNIT  Curve Description                  
#---------  -----------------                  
DEPT.m      : DEPT/Depth Dimensions (1,)       
TENS.lbs    : TENS/Tension Dimensions (1,)     
ETIM.min    : ETIM/Elapsed Time Dimensions (1,)
DHTN.lbs    : DHTN/CH Tension Dimensions (1,)  
GR  .api    : GR/Gamma API Dimensions (1,)     
# Array processing information:
# Frame Array: ID: OBNAME: O: 2 C: 0 I: b'50' description: b''
# All [5] original channels reproduced here.
# Where a channel has multiple values the reduction method is by "first" value.
# Maximum number of original frames: 649
# Requested frame slicing: <Slice on length=649 start=0 stop=649 step=1>, total number of frames presented here: 649
~A          DEPT             TENS             ETIM             DHTN               GR
# ...
        2946.400         5848.621            0.756         2754.861         -999.250
        2946.500         5850.431            0.746         2754.861         -999.250
        2946.600         5858.890            0.737         2745.601         -999.250
        2946.700         5850.632            0.727         2745.601         -999.250
        2946.800         5839.902            0.720         2732.973         -999.250
        2946.900         5832.806            0.710         2710.242         -999.250
        2947.000         5845.278            0.701         2710.242         -999.250
        2947.100         5847.599            0.691         2712.768         -999.250
        2947.200         5851.522            0.682         2712.768         -999.250
        2947.300         5880.340            0.672         2727.921         -999.250
        2947.400         5902.040            0.663         2727.921         -999.250
        2947.500         5903.150            0.653         2749.810         -999.250
        2947.600         5901.789            0.644         2749.810         -999.250
        2947.700         5884.144            0.634         2765.805         -999.250
        2947.800         5865.146            0.624         2783.484         -999.250
        2947.900         5844.576            0.614         2783.484         -999.250
        2948.000         5825.959            0.604         2740.549         -999.250
        2948.100         5817.962            0.595         2740.549         -999.250
        2948.200         5793.680            0.585         2721.186         -999.250
        2948.300         5787.434            0.576         2721.186         -999.250
        2948.400         5806.191            0.569         2702.666         -999.250
        2948.500         5819.232            0.559         2699.298         -999.250
        2948.600         5800.686            0.549         2699.298         -999.250
        2948.700         5813.438            0.540         2715.293         -999.250
        2948.800         5843.456            0.530         2715.293         -999.250
        2948.900         5836.100            0.521         2724.554         -999.250
        2949.000         5825.850            0.511         2724.554         -999.250
        2949.100         5846.768            0.501         2725.396         -999.250
        2949.200         5840.512            0.492         2722.870         -999.250
        2949.300         5817.160            0.482         2722.870         -999.250
        2949.400         5828.211            0.473         2717.819         -999.250
        2949.500         5834.897            0.463         2717.819         -999.250
        2949.600         5829.412            0.454         2726.238         -999.250
        2949.700         5850.982            0.444         2726.238         -999.250
        2949.800         5891.299            0.434         2732.973         -999.250
        2949.900         5893.663            0.427         2744.759         -999.250
        2950.000         5846.789            0.417         2744.759         -999.250
        2950.100         5830.954            0.408         2788.536         -999.250
        2950.200         5834.368            0.398         2788.536         -999.250
        2950.300         5819.874            0.389         2732.973         -999.250
        2950.400         5829.251            0.379         2732.973         -999.250
        2950.500         5839.792            0.369         2740.549         -999.250
        2950.600         5833.136            0.359         2743.075         -999.250
        2950.700         5815.510            0.350         2743.075         -999.250
        2950.800         5803.798            0.340         2738.024         -999.250
        2950.900         5806.072            0.331         2738.024         -999.250
        2951.000         5799.855            0.321         2721.187         -999.250
        2951.100         5782.971            0.312         2721.187         -999.250
        2951.200         5773.391            0.302         2712.768         -999.250
        2951.300         5757.136            0.293         2712.768         -999.250
        2951.400         5733.765            0.283         2711.084         -999.250
        2951.500         5731.231            0.275         2705.191         -999.250
        2951.600         5751.099            0.266         2705.191         -999.250
        2951.700         5773.260            0.256         2706.033         -999.250
        2951.800         5768.788            0.247         2706.033         -999.250
        2951.900         5778.246            0.237         2712.768         -999.250
        2952.000         5794.931            0.228         2712.768         -999.250
        2952.100         5777.694            0.218         2707.717         -999.250
        2952.200         5765.863            0.209         2707.717         -999.250
        2952.300         5790.966            0.199         2707.717         -999.250
        2952.400         5791.428            0.189         2707.717         -999.250
        2952.500         5771.659            0.179         2707.717         -999.250
        2952.600         5781.479            0.169         2717.819         -999.250
        2952.700         5780.767            0.160         2717.819         -999.250
        2952.800         5750.008            0.150         2704.349         -999.250
        2952.900         5749.019            0.141         2738.024         -999.250
        2953.000         5775.612            0.131         2738.024         -999.250
        2953.100         5787.434            0.124         2732.973         -999.250
        2953.200         5778.816            0.114         2732.973         -999.250
        2953.300         5778.636            0.105         2738.024         -999.250
        2953.400         5775.612            0.095         2738.024         -999.250
        2953.500         5738.388            0.086         2727.922         -999.250
        2953.600         5679.234            0.076         2702.666         -999.250
        2953.700         5629.878            0.066         2702.666         -999.250
        2953.800         5569.453            0.057         2648.786         -999.250
        2953.900         5492.792            0.047         2648.786         -999.250
        2954.000         5434.608            0.038         2576.386         -999.250
        2954.100         5367.356            0.028         2576.386         -999.250
        2954.200         5292.037            0.019         2562.916         -999.250
