~Version Information Section
VERS.          2.0                             : CWLS Log ASCII Standard - VERSION 2.0
WRAP.          NO                              : One Line per depth step
PROD.          TotalDepth                      : LAS Producer
PROG.          TotalDepth.RP66V1.ToLAS 0.1.2   : LAS Program name and version
CREA.          2020-10-10 08:46:39.579369 UTC  : LAS Creation date [YYYY-mm-dd HH MM SS.us UTC]
DLIS_CREA.     2012-03-07 10:00:49.000000 UTC  : DLIS Creation date and time [YYYY-mm-dd HH MM SS.us UTC]
SOURCE.        BASIC_FILE.dlis                 : DLIS File Name
FILE-ID.       HES INSITE.1                    : File Identification Number
LOGICAL-FILE.  0                               : Logical File number in the DLIS file
FRAME-ARRAY.   50                              : Identity of the Frame Array in the Logical File
~Well Information Section
#MNEM.UNIT  DATA                         DESCRIPTION
#----.----  ----                         -----------
STRT.m      2889.4                       : Start X
STOP.m      2954.199999999941            : Stop X, frames 649 out of 649 available.
STEP.m      0.09999999999990905          : Step (average)
NULL.                                    :
COMP.       BURU ENERGY LIMITED          :
WELL.       VALHALLA NORTH 1             :
FLD .       VALHALLA                     :
LOC .                                    :
PROV.                                    :
CNTY.                                    :
STAT.       WA                           : STATE NAME
CTRY.                                    :
UWI .                                    :
API .                                    :
SRVC.       Halliburton                  :
DATE.       2012-03-07 10 00 49.000 STD  :
~Parameter Information Section
#MNEM.UNIT               Value                           Description
#---------               -----                           -----------
LOC .                    LATITUDE  18DEG 01' 32.8'' S    : LOCATION
SVCO.                    Halliburton                     : SERVICECONAME
IQVR.                    R3.2.0                          : WLIQ VERSION
STAT.                    WA                              : STATE NAME
COUN.                    AUSTRALIA                       : COUNTRY NAME
SON .                    9262611                         : JOB NUMBER
SECT.                    N/A                             : SECTION
TOWN.                    N/A                             : TOWNSHIP
RANG.                    N/A                             : RANGE
APIN.                    N/A                             : API S/N
CN  .                    BURU ENERGY LIMITED             : CUSTOMER NAME
WN  .                    VALHALLA NORTH 1                : WELL NAME
FN  .                    VALHALLA                        : FIELD NAME
RIG .                    ENSIGN RIG #32                  : RIG NAME
PDAT.                    MSL                             : PERMANENT DATUM
LMF .                    RT                              : LOG MEAS FROM
DMF .                    RT                              : DRILL MEAS FROM
FL1 .                    LATITUDE  18DEG 01' 32.8'' S    : LOCATIONLINE1
FL2 .                    LONGITUDE  124DEG 43' 47.1'' E  : LOCATIONLINE2
FL3 .                    EASTING  683112                 : LOCATIONLINE3
FL4 .                    NORTHING  8006107               : LOCATIONLINE4
FL5 .                    GDA ZONE 51                     : LOCATIONLINE5
DATE.                    06-Mar-2012                     : DATE
LCC .                    280                             : PRODUCER-CODE
EDF .m                   114.9000015258789               : DF ELEV
EPD .m                   0.0                             : ELEVATION
EGL .m                   109.0                           : GL ELEV
GVFD.g                   1.0                             : GRAVITY FIELD
EKB .m                   114.9000015258789               : KB ELEV
TVDS.m                   5.90000057220459                : TVDSS CORRECTN
APD .m                   5.90000057220459                : DEPTH ABOVE PD
DDEV.deg                 1.8200000524520874              : MAX INC
DDEG.m                   2225.169921875                  : MAX INC DEPTH
DEP_Serial_Number.       PROT01                          : Depth Panel Serial Number
DEP_Tool_Class.          Surface Panels                  : Depth Panel Tool Class
DEP_Max_Temp.degC        48.900001525878906              : Depth Panel Max Temp
DEP_Max_Speed.mpm        0.0                             : Depth Panel Max Speed
DEP_Max_Pressure.psia    0.0                             : Depth Panel Max Pressure
DEP_Tool_Length.m        0.0                             : Depth Panel Tool Length
DEP_Tool_Diameter.mm     0.0                             : Depth Panel Tool Diameter
DEP_Tool_Weight.lbs      0.0                             : Depth Panel Tool Weight
DEP_Position.m           0.0                             : Depth Panel Position
RWCH_Serial_Number.      11435221                        : RWCH Serial Number
RWCH_Tool_Class.         Cable Head                      : RWCH Tool Class
RWCH_Max_Temp.degC       204.39999389648438              : RWCH Max Temp
RWCH_Max_Speed.mpm       91.0                            : RWCH Max Speed
RWCH_Max_Pressure.psia   20000.0                         : RWCH Max Pressure
RWCH_Tool_Length.m       1.899999976158142               : RWCH Tool Length
RWCH_Tool_Diameter.mm    92.07499694824219               : RWCH Tool Diameter
RWCH_Tool_Weight.lbs     135.0                           : RWCH Tool Weight
RWCH_Position.m          0.0                             : RWCH Position
RWCH_Accum_Length.m      34.720001220703125              : RWCH Accum Length
D4TG_Serial_Number.      434                             : D4TG Serial Number
D4TG_Tool_Class.         DITS                            : D4TG Tool Class
D4TG_Max_Temp.degC       176.6999969482422               : D4TG Max Temp
D4TG_Max_Speed.mpm       18.0                            : D4TG Max Speed
D4TG_Max_Pressure.psia   20000.0                         : D4TG Max Pressure
D4TG_Tool_Length.m       2.049999952316284               : D4TG Tool Length
D4TG_Tool_Diameter.mm    92.07499694824219               : D4TG Tool Diameter
D4TG_Tool_Weight.lbs     110.0                           : D4TG Tool Weight
D4TG_Position.m          0.0                             : D4TG Position
D4TG_Accum_Length.m      27.639999389648438              : D4TG Accum Length
~Curve Information Section
#MNEM.UNIT  Curve Description                  
#---------  -----------------                  
DEPT.m      : DEPT/Depth Dimensions (1,)       
TENS.lbs    : TENS/Tension Dimensions (1,)     
ETIM.min    : ETIM/Elapsed Time Dimensions (1,)
DHTN.lbs    : DHTN/CH Tension Dimensions (1,)  
GR  .api    : GR/Gamma API Dimensions (1,)     
# Array processing information:
# Frame Array: ID: OBNAME: O: 2 C: 0 I: b'50' description: b''
# All [5] original channels reproduced here.
# Where a channel has multiple values the reduction method is by "first" value.
# Maximum number of original frames: 649
# Requested frame slicing: <Slice on length=649 start=0 stop=649 step=1>, total number of frames presented here: 649
~A          DEPT             TENS             ETIM             DHTN               GR
# ...
        2936.900         5825.510            1.652         2679.093         -999.250
        2937.000         5832.575            1.643         2687.512         -999.250
        2937.100         5827.240            1.633         2687.512         -999.250
        2937.200         5805.020            1.624         2684.144         -999.250
        2937.300         5799.075            1.616         2684.144         -999.250
        2937.400         5798.784            1.606         2677.409         -999.250
        2937.500         5806.371            1.597         2677.409         -999.250
        2937.600         5807.882            1.588         2679.093         -999.250
        2937.700         5825.289            1.578         2679.093         -999.250
        2937.800         5857.459            1.568         2684.986         -999.250
        2937.900         5845.949            1.559         2692.563         -999.250
        2938.000         5850.462            1.549         2692.563         -999.250
        2938.100         5891.950            1.539         2700.140         -999.250
        2938.200         5903.341            1.529         2700.140         -999.250
        2938.300         5863.434            1.520         2711.084         -999.250
        2938.400         5859.600            1.510         2711.084         -999.250
        2938.500         5860.992            1.501         2722.870         -999.250
        2938.600         5822.646            1.492         2731.289         -999.250
        2938.700         5813.849            1.482         2731.289         -999.250
        2938.800         5831.455            1.473         2732.973         -999.250
        2938.900         5820.413            1.465         2732.973         -999.250
        2939.000         5788.875            1.456         2712.768         -999.250
        2939.100         5821.275            1.446         2712.768         -999.250
        2939.200         5855.907            1.437         2702.666         -999.250
        2939.300         5839.261            1.427         2702.666         -999.250
        2939.400         5841.354            1.418         2695.930         -999.250
        2939.500         5856.337            1.408         2695.089         -999.250
        2939.600         5834.978            1.399         2695.089         -999.250
        2939.700         5823.457            1.389         2699.298         -999.250
        2939.800         5844.997            1.379         2699.298         -999.250
        2939.900         5854.457            1.369         2712.768         -999.250
        2940.000         5838.731            1.360         2712.768         -999.250
        2940.100         5844.816            1.350         2719.503         -999.250
        2940.200         5856.218            1.341         2715.293         -999.250
        2940.300         5855.037            1.331         2715.293         -999.250
        2940.400         5849.491            1.324         2729.605         -999.250
        2940.500         5842.395            1.314         2729.605         -999.250
        2940.600         5860.421            1.305         2738.024         -999.250
        2940.700         5863.324            1.295         2738.024         -999.250
        2940.800         5844.836            1.286         2734.656         -999.250
        2940.900         5842.465            1.276         2738.024         -999.250
        2941.000         5851.223            1.267         2738.024         -999.250
        2941.100         5849.520            1.257         2736.340         -999.250
        2941.200         5846.719            1.248         2736.340         -999.250
        2941.300         5847.659            1.239         2717.819         -999.250
        2941.400         5834.076            1.229         2717.819         -999.250
        2941.500         5808.103            1.219         2721.187         -999.250
        2941.600         5820.214            1.209         2721.187         -999.250
        2941.700         5837.509            1.200         2705.191         -999.250
        2941.800         5809.714            1.190         2707.717         -999.250
        2941.900         5802.909            1.181         2707.717         -999.250
        2942.000         5825.328            1.174         2702.666         -999.250
        2942.100         5833.797            1.164         2702.666         -999.250
        2942.200         5820.124            1.154         2707.717         -999.250
        2942.300         5853.385            1.145         2707.717         -999.250
        2942.400         5869.529            1.135         2707.717         -999.250
        2942.500         5841.785            1.126         2707.717         -999.250
        2942.600         5844.826            1.117         2707.717         -999.250
        2942.700         5881.290            1.107         2707.717         -999.250
        2942.800         5883.673            1.098         2707.717         -999.250
        2942.900         5870.771            1.088         2707.717         -999.250
        2943.000         5882.300            1.079         2707.717         -999.250
        2943.100         5881.690            1.069         2705.191         -999.250
        2943.200         5857.059            1.059         2695.930         -999.250
        2943.300         5843.806            1.049         2695.930         -999.250
        2943.400         5845.577            1.039         2684.986         -999.250
        2943.500         5845.458            1.030         2684.986         -999.250
        2943.600         5848.130            1.023         2684.145         -999.250
        2943.700         5885.174            1.014         2684.145         -999.250
        2943.800         5943.687            1.004         2717.819         -999.250
        2943.900         5959.233            0.994         2717.819         -999.250
        2944.000         5966.939            0.985         2766.647         -999.250
        2944.100         5983.634            0.975         2828.945         -999.250
        2944.200         5988.410            0.965         2828.945         -999.250
        2944.300         5953.517            0.956         2842.415         -999.250
        2944.400         5900.419            0.946         2842.415         -999.250
        2944.500         5888.476            0.937         2828.945         -999.250
        2944.600         5885.604            0.927         2828.945         -999.250
        2944.700         5864.225            0.917         2763.280         -999.250
        2944.800         5875.916            0.908         2740.549         -999.250
        2944.900         5900.047            0.898         2740.549         -999.250
        2945.000         5887.847            0.889         2756.545         -999.250
        2945.100         5886.205            0.879         2756.545         -999.250
        2945.200         5902.209            0.872         2755.703         -999.250
        2945.300         5898.757            0.862         2755.703         -999.250
        2945.400         5856.388            0.853         2763.280         -999.250
        2945.500         5861.222            0.843         2755.703         -999.250
        2945.600         5874.084            0.833         2755.703         -999.250
        2945.700         5850.071            0.824         2748.126         -999.250
        2945.800         5844.117            0.814         2748.126         -999.250
        2945.900         5878.617            0.804         2740.549         -999.250
        2946.000         5874.895            0.794         2740.549         -999.250
        2946.100         5853.725            0.785         2743.075         -999.250
        2946.200         5866.667            0.775         2748.126         -999.250
        2946.300         5864.935            0.766         2748.126         -999.250
