~Version Information Section
VERS.          2.0                             : CWLS Log ASCII Standard - VERSION 2.0
WRAP.          NO                              : One Line per depth step
PROD.          TotalDepth                      : LAS Producer
PROG.          TotalDepth.RP66V1.ToLAS 0.1.2   : LAS Program name and version
CREA.          2020-10-10 08:46:39.579369 UTC  : LAS Creation date [YYYY-mm-dd HH MM SS.us UTC]
DLIS_CREA.     2012-03-07 10:00:49.000000 UTC  : DLIS Creation date and time [YYYY-mm-dd HH MM SS.us UTC]
SOURCE.        BASIC_FILE.dlis                 : DLIS File Name
FILE-ID.       HES INSITE.1                    : File Identification Number
LOGICAL-FILE.  0                               : Logical File number in the DLIS file
FRAME-ARRAY.   50                              : Identity of the Frame Array in the Logical File
~Well Information Section
#MNEM.UNIT  DATA                         DESCRIPTION
#----.----  ----                         -----------
STRT.m      2889.4                       : Start X
STOP.m      2954.199999999941            : Stop X, frames 649 out of 649 available.
STEP.m      0.09999999999990905          : Step (average)
NULL.                                    :
COMP.       BURU ENERGY LIMITED          :
WELL.       VALHALLA NORTH 1             :
FLD .       VALHALLA                     :
LOC .                                    :
PROV.                                    :
CNTY.                                    :
STAT.       WA                           : STATE NAME
CTRY.                                    :
UWI .                                    :
API .                                    :
SRVC.       Halliburton                  :
DATE.       2012-03-07 10 00 49.000 STD  :
~Parameter Information Section
#MNEM.UNIT               Value                           Description
#---------               -----                           -----------
LOC .                    LATITUDE  18DEG 01' 32.8'' S    : LOCATION
SVCO.                    Halliburton                     : SERVICECONAME
IQVR.                    R3.2.0                          : WLIQ VERSION
STAT.                    WA                              : STATE NAME
COUN.                    AUSTRALIA                       : COUNTRY NAME
SON .                    9262611                         : JOB NUMBER
SECT.                    N/A                             : SECTION
TOWN.                    N/A                             : TOWNSHIP
RANG.                    N/A                             : RANGE
APIN.                    N/A                             : API S/N
CN  .                    BURU ENERGY LIMITED             : CUSTOMER NAME
WN  .                    VALHALLA NORTH 1                : WELL NAME
FN  .                    VALHALLA                        : FIELD NAME
RIG .                    ENSIGN RIG #32                  : RIG NAME
PDAT.                    MSL                             : PERMANENT DATUM
LMF .                    RT                              : LOG MEAS FROM
DMF .                    RT                              : DRILL MEAS FROM
FL1 .                    LATITUDE  18DEG 01' 32.8'' S    : LOCATIONLINE1
FL2 .                    LONGITUDE  124DEG 43' 47.1'' E  : LOCATIONLINE2
FL3 .                    EASTING  683112                 : LOCATIONLINE3
FL4 .                    NORTHING  8006107               : LOCATIONLINE4
FL5 .                    GDA ZONE 51                     : LOCATIONLINE5
DATE.                    06-Mar-2012                     : DATE
LCC .                    280                             : PRODUCER-CODE
EDF .m                   114.9000015258789               : DF ELEV
EPD .m                   0.0                             : ELEVATION
EGL .m                   109.0                           : GL ELEV
GVFD.g                   1.0                             : GRAVITY FIELD
EKB .m                   114.9000015258789               : KB ELEV
TVDS.m                   5.90000057220459                : TVDSS CORRECTN
APD .m                   5.90000057220459                : DEPTH ABOVE PD
DDEV.deg                 1.8200000524520874              : MAX INC
DDEG.m                   2225.169921875                  : MAX INC DEPTH
DEP_Serial_Number.       PROT01                          : Depth Panel Serial Number
DEP_Tool_Class.          Surface Panels                  : Depth Panel Tool Class
DEP_Max_Temp.degC        48.900001525878906              : Depth Panel Max Temp
DEP_Max_Speed.mpm        0.0                             : Depth Panel Max Speed
DEP_Max_Pressure.psia    0.0                             : Depth Panel Max Pressure
DEP_Tool_Length.m        0.0                             : Depth Panel Tool Length
DEP_Tool_Diameter.mm     0.0                             : Depth Panel Tool Diameter
DEP_Tool_Weight.lbs      0.0                             : Depth Panel Tool Weight
DEP_Position.m           0.0                             : Depth Panel Position
RWCH_Serial_Number.      11435221                        : RWCH Serial Number
RWCH_Tool_Class.         Cable Head                      : RWCH Tool Class
RWCH_Max_Temp.degC       204.39999389648438              : RWCH Max Temp
RWCH_Max_Speed.mpm       91.0                            : RWCH Max Speed
RWCH_Max_Pressure.psia   20000.0                         : RWCH Max Pressure
RWCH_Tool_Length.m       1.899999976158142               : RWCH Tool Length
RWCH_Tool_Diameter.mm    92.07499694824219               : RWCH Tool Diameter
RWCH_Tool_Weight.lbs     135.0                           : RWCH Tool Weight
RWCH_Position.m          0.0                             : RWCH Position
RWCH_Accum_Length.m      34.720001220703125              : RWCH Accum Length
D4TG_Serial_Number.      434                             : D4TG Serial Number
D4TG_Tool_Class.         DITS                            : D4TG Tool Class
D4TG_Max_Temp.degC       176.6999969482422               : D4TG Max Temp
D4TG_Max_Speed.mpm       18.0                            : D4TG Max Speed
D4TG_Max_Pressure.psia   20000.0                         : D4TG Max Pressure
D4TG_Tool_Length.m       2.049999952316284               : D4TG Tool Length
D4TG_Tool_Diameter.mm    92.07499694824219               : D4TG Tool Diameter
D4TG_Tool_Weight.lbs     110.0                           : D4TG Tool Weight
D4TG_Position.m          0.0                             : D4TG Position
D4TG_Accum_Length.m      27.639999389648438              : D4TG Accum Length
~Curve Information Section
#MNEM.UNIT  Curve Description                  
#---------  -----------------                  
DEPT.m      : DEPT/Depth Dimensions (1,)       
TENS.lbs    : TENS/Tension Dimensions (1,)     
ETIM.min    : ETIM/Elapsed Time Dimensions (1,)
DHTN.lbs    : DHTN/CH Tension Dimensions (1,)  
GR  .api    : GR/Gamma API Dimensions (1,)     
# Array processing information:
# Frame Array: ID: OBNAME: O: 2 C: 0 I: b'50' description: b''
# All [5] original channels reproduced here.
# Where a channel has multiple values the reduction method is by "first" value.
# Maximum number of original frames: 649
# Requested frame slicing: <Slice on length=649 start=0 stop=649 step=1>, total number of frames presented here: 649
~A          DEPT             TENS             ETIM             DHTN               GR
# ...
        2927.400         5909.587            2.541         2725.396         -999.250
        2927.500         5905.164            2.531         2725.396         -999.250
        2927.600         5891.850            2.522         2719.503         -999.250
        2927.700         5916.693            2.513         2719.503         -999.250
        2927.800         5952.997            2.505         2707.717         -999.250
        2927.900         5945.310            2.496         2707.717         -999.250
        2928.000         5923.109            2.487         2706.033         -999.250
        2928.100         5950.295            2.477         2705.191         -999.250
        2928.200         5962.525            2.468         2705.191         -999.250
        2928.300         5927.684            2.459         2704.349         -999.250
        2928.400         5922.138            2.449         2704.349         -999.250
        2928.500         5941.136            2.439         2702.666         -999.250
        2928.600         5925.602            2.429         2702.666         -999.250
        2928.700         5902.540            2.420         2694.247         -999.250
        2928.800         5916.732            2.411         2694.247         -999.250
        2928.900         5907.275            2.401         2695.089         -999.250
        2929.000         5878.107            2.392         2692.563         -999.250
        2929.100         5897.635            2.383         2692.563         -999.250
        2929.200         5934.990            2.373         2684.986         -999.250
        2929.300         5938.903            2.364         2684.986         -999.250
        2929.400         5940.854            2.357         2685.828         -999.250
        2929.500         5959.862            2.347         2685.828         -999.250
        2929.600         5970.943            2.338         2690.038         -999.250
        2929.700         5958.492            2.329         2690.038         -999.250
        2929.800         5954.799            2.319         2684.145         -999.250
        2929.900         5965.618            2.309         2690.038         -999.250
        2930.000         5943.908            2.300         2690.038         -999.250
        2930.100         5938.644            2.290         2689.196         -999.250
        2930.200         5943.417            2.281         2689.196         -999.250
        2930.300         5947.882            2.272         2679.935         -999.250
        2930.400         5902.209            2.263         2679.935         -999.250
        2930.500         5844.146            2.253         2684.145         -999.250
        2930.600         5853.045            2.244         2684.145         -999.250
        2930.700         5877.257            2.234         2705.191         -999.250
        2930.800         5866.276            2.224         2692.563         -999.250
        2930.900         5850.032            2.218         2692.563         -999.250
        2931.000         5867.979            2.208         2697.614         -999.250
        2931.100         5867.838            2.199         2697.614         -999.250
        2931.200         5833.347            2.189         2680.777         -999.250
        2931.300         5847.008            2.179         2680.777         -999.250
        2931.400         5863.635            2.169         2672.358         -999.250
        2931.500         5831.855            2.160         2672.358         -999.250
        2931.600         5822.787            2.151         2674.042         -999.250
        2931.700         5851.043            2.141         2682.461         -999.250
        2931.800         5836.469            2.132         2682.461         -999.250
        2931.900         5792.118            2.123         2667.307         -999.250
        2932.000         5786.753            2.113         2667.307         -999.250
        2932.100         5782.409            2.104         2690.038         -999.250
        2932.200         5784.751            2.094         2690.038         -999.250
        2932.300         5829.152            2.084         2692.563         -999.250
        2932.400         5871.322            2.075         2700.140         -999.250
        2932.500         5863.144            2.068         2700.140         -999.250
        2932.600         5843.896            2.059         2704.349         -999.250
        2932.700         5860.822            2.049         2704.349         -999.250
        2932.800         5856.507            2.039         2705.191         -999.250
        2932.900         5829.412            2.030         2705.191         -999.250
        2933.000         5822.086            2.020         2711.084         -999.250
        2933.100         5839.992            2.011         2711.084         -999.250
        2933.200         5841.744            2.001         2702.666         -999.250
        2933.300         5831.423            1.992         2699.298         -999.250
        2933.400         5831.234            1.982         2699.298         -999.250
        2933.500         5819.874            1.973         2707.717         -999.250
        2933.600         5811.375            1.963         2707.717         -999.250
        2933.700         5811.976            1.954         2707.717         -999.250
        2933.800         5814.208            1.944         2707.717         -999.250
        2933.900         5828.081            1.934         2702.666         -999.250
        2934.000         5808.834            1.924         2694.247         -999.250
        2934.100         5800.446            1.918         2694.247         -999.250
        2934.200         5819.094            1.908         2690.038         -999.250
        2934.300         5830.143            1.899         2690.038         -999.250
        2934.400         5814.509            1.889         2679.093         -999.250
        2934.500         5835.038            1.879         2679.093         -999.250
        2934.600         5876.637            1.869         2684.986         -999.250
        2934.700         5857.790            1.860         2697.614         -999.250
        2934.800         5846.039            1.850         2697.614         -999.250
        2934.900         5861.942            1.841         2700.140         -999.250
        2935.000         5834.717            1.831         2700.140         -999.250
        2935.100         5786.833            1.822         2700.982         -999.250
        2935.200         5811.526            1.812         2700.982         -999.250
        2935.300         5845.878            1.803         2697.614         -999.250
        2935.400         5822.396            1.793         2697.614         -999.250
        2935.500         5812.877            1.784         2692.563         -999.250
        2935.600         5836.279            1.774         2684.986         -999.250
        2935.700         5827.961            1.766         2684.986         -999.250
        2935.800         5804.240            1.757         2677.409         -999.250
        2935.900         5821.295            1.748         2677.409         -999.250
        2936.000         5820.335            1.738         2674.884         -999.250
        2936.100         5791.037            1.729         2674.884         -999.250
        2936.200         5780.337            1.719         2679.094         -999.250
        2936.300         5803.329            1.709         2672.358         -999.250
        2936.400         5782.529            1.699         2672.358         -999.250
        2936.500         5755.173            1.690         2668.991         -999.250
        2936.600         5751.471            1.680         2668.991         -999.250
        2936.700         5766.786            1.671         2672.358         -999.250
        2936.800         5795.062            1.662         2672.358         -999.250
